[
	{
		"id": "biz_001",
		"name": "Blue Moon Bakery",
		"category": "food",
		"address": "123 Main Street, Downtown",
		"rating": 4.6,
		"reviewsCount": 24,
		"description": "A local family-owned bakery serving fresh artisan bread, pastries, and coffee since 1995. Known for our sourdough and croissants.",
		"verified": true,
		"images": ["/images/business-1.jpg"],
		"phone": "(555) 123-4567",
		"website": "https://bluemoonbakery.example",
		"hours": "Mon-Sat 7AM-6PM, Sun 8AM-4PM",
		"deals": []
	},
	{
		"id": "biz_002",
		"name": "TechStyle Electronics",
		"category": "retail",
		"address": "456 Commerce Avenue, Shopping District",
		"rating": 4.3,
		"reviewsCount": 18,
		"description": "Your one-stop shop for the latest electronics, gadgets, and accessories. Expert staff ready to help with all your tech needs.",
		"verified": true,
		"images": ["/images/business-2.jpg"],
		"phone": "(555) 234-5678",
		"website": "https://techstyle.example",
		"hours": "Mon-Sat 10AM-8PM, Sun 11AM-6PM",
		"deals": []
	},
	{
		"id": "biz_003",
		"name": "Sunset Yoga Studio",
		"category": "services",
		"address": "789 Wellness Way, Eastside",
		"rating": 4.8,
		"reviewsCount": 31,
		"description": "Transform your mind and body with our expert-led yoga classes. All levels welcome, from beginners to advanced practitioners.",
		"verified": true,
		"images": ["/images/business-3.jpg"],
		"phone": "(555) 345-6789",
		"website": "https://sunsetyoga.example",
		"hours": "Mon-Sun 6AM-9PM",
		"deals": []
	},
	{
		"id": "biz_004",
		"name": "The Coffee Corner",
		"category": "food",
		"address": "321 Park Boulevard, Central Park",
		"rating": 4.5,
		"reviewsCount": 42,
		"description": "Cozy neighborhood coffee shop with premium single-origin beans, homemade pastries, and free WiFi. Perfect for remote work or catching up with friends.",
		"verified": true,
		"images": ["/images/business-4.jpg"],
		"phone": "(555) 456-7890",
		"hours": "Mon-Fri 6AM-7PM, Sat-Sun 7AM-6PM",
		"deals": []
	},
	{
		"id": "biz_005",
		"name": "Urban Threads Boutique",
		"category": "retail",
		"address": "555 Fashion Lane, Uptown",
		"rating": 4.4,
		"reviewsCount": 27,
		"description": "Curated selection of contemporary fashion and accessories. Sustainable brands, unique pieces, and personalized styling services available.",
		"verified": false,
		"images": ["/images/business-5.jpg"],
		"phone": "(555) 567-8901",
		"website": "https://urbanthreads.example",
		"hours": "Tue-Sat 11AM-7PM, Sun 12PM-5PM",
		"deals": []
	},
	{
		"id": "biz_006",
		"name": "Green Thumb Landscaping",
		"category": "services",
		"address": "888 Garden Road, Westside",
		"rating": 4.7,
		"reviewsCount": 19,
		"description": "Professional landscaping and lawn care services. From design to maintenance, we create beautiful outdoor spaces that last.",
		"verified": true,
		"images": ["/images/business-6.jpg"],
		"phone": "(555) 678-9012",
		"website": "https://greenthumb.example",
		"hours": "Mon-Fri 8AM-5PM",
		"deals": []
	},
	{
		"id": "biz_007",
		"name": "Spice Market Restaurant",
		"category": "food",
		"address": "234 Flavor Street, Little India",
		"rating": 4.9,
		"reviewsCount": 56,
		"description": "Authentic Indian cuisine with a modern twist. Family recipes passed down through generations, using fresh spices and locally-sourced ingredients.",
		"verified": true,
		"images": ["/images/business-7.jpg"],
		"phone": "(555) 789-0123",
		"website": "https://spicemarket.example",
		"hours": "Tue-Sun 11AM-10PM",
		"deals": []
	},
	{
		"id": "biz_008",
		"name": "Book Nook",
		"category": "retail",
		"address": "147 Library Lane, Old Town",
		"rating": 4.6,
		"reviewsCount": 33,
		"description": "Independent bookstore specializing in literary fiction, local authors, and rare finds. Monthly book clubs and author events.",
		"verified": true,
		"images": ["/images/business-8.jpg"],
		"phone": "(555) 890-1234",
		"website": "https://booknook.example",
		"hours": "Mon-Sat 9AM-8PM, Sun 10AM-6PM",
		"deals": []
	},
	{
		"id": "biz_009",
		"name": "AutoCare Pro",
		"category": "services",
		"address": "999 Motor Avenue, Industrial Park",
		"rating": 4.5,
		"reviewsCount": 41,
		"description": "Full-service auto repair and maintenance. ASE-certified technicians, honest pricing, and shuttle service available.",
		"verified": true,
		"images": ["/images/business-9.jpg"],
		"phone": "(555) 901-2345",
		"website": "https://autocarepro.example",
		"hours": "Mon-Fri 7AM-6PM, Sat 8AM-4PM",
		"deals": []
	},
	{
		"id": "biz_010",
		"name": "Pizzeria Bella",
		"category": "food",
		"address": "369 Italian Plaza, North End",
		"rating": 4.7,
		"reviewsCount": 48,
		"description": "Traditional wood-fired pizza made with imported Italian ingredients. Dine-in, takeout, and delivery available.",
		"verified": true,
		"images": ["/images/business-10.jpg"],
		"phone": "(555) 012-3456",
		"website": "https://pizzeriabella.example",
		"hours": "Mon-Sun 11AM-11PM",
		"deals": []
	},
	{
		"id": "biz_011",
		"name": "Fit Zone Gym",
		"category": "services",
		"address": "741 Fitness Drive, Sports Complex",
		"rating": 4.4,
		"reviewsCount": 36,
		"description": "State-of-the-art fitness facility with personal training, group classes, and 24/7 access. First week free for new members!",
		"verified": false,
		"images": ["/images/business-11.jpg"],
		"phone": "(555) 123-7890",
		"website": "https://fitzonegym.example",
		"hours": "24/7",
		"deals": []
	},
	{
		"id": "biz_012",
		"name": "Home & Garden Supply",
		"category": "retail",
		"address": "852 Hardware Highway, South Plaza",
		"rating": 4.3,
		"reviewsCount": 22,
		"description": "Everything for your home and garden needs. Hardware, tools, plants, and expert advice. Local family business since 1978.",
		"verified": true,
		"images": ["/images/business-12.jpg"],
		"phone": "(555) 234-8901",
		"website": "https://homegarden.example",
		"hours": "Mon-Sat 7AM-7PM, Sun 8AM-5PM",
		"deals": []
	}
]

